date,state,city,place_type,confirmed,deaths,is_last,estimated_population_2019,city_ibge_code,confirmed_per_100k_inhabitants,death_rate,latitude,longitude
2020-04-04,AC,0,state,46,0.0,False,881935.0,12.0,5.2158,0.0,-9.978580474853516,-67.81183624267578
2020-04-04,AL,0,state,23,2.0,False,3337357.0,27.0,0.68917,0.087,-9.662039756774902,-35.73516082763672
2020-04-04,AM,0,state,311,12.0,False,4144597.0,13.0,7.50375,0.0386,-3.122299909591675,-60.01462173461914
2020-04-04,AP,0,state,29,1.0,False,845731.0,16.0,3.42899,0.0345,0.036410000175237656,-51.04829025268555
2020-04-04,BA,0,state,336,7.0,False,14873064.0,29.0,2.2591200000000002,0.0208,-12.972900390625,-38.50123977661133
2020-04-04,CE,0,state,745,23.0,False,9132078.0,23.0,8.15806,0.0309,-3.7833199501037598,-38.58890151977539
2020-04-04,DF,0,state,456,7.0,False,3015268.0,53.0,15.123029999999998,0.0154,-15.792110443115234,-47.89775085449219
2020-04-04,ES,0,state,166,6.0,False,4018650.0,32.0,4.13074,0.0361,-20.30677032470703,-40.30622863769531
2020-04-04,GO,0,state,103,2.0,False,7018354.0,52.0,1.4675799999999999,0.0194,-16.690370559692383,-49.25838088989258
2020-04-04,MA,0,state,95,2.0,False,7075181.0,21.0,1.3427200000000001,0.0211,-2.5144999027252197,-44.30067825317383
2020-04-04,MG,0,state,430,6.0,False,21168791.0,31.0,2.0312900000000003,0.013999999999999999,-19.91864013671875,-43.935691833496094
2020-04-04,MS,0,state,62,1.0,False,2778986.0,50.0,2.23103,0.0161,-20.45149040222168,-54.616119384765625
2020-04-04,MT,0,state,60,1.0,False,3484466.0,51.0,1.72193,0.0167,-15.614919662475586,-56.093231201171875
2020-04-04,PA,0,state,82,1.0,False,8602865.0,15.0,0.9531700000000001,0.0122,-1.4393600225448608,-48.49768829345703
2020-04-04,PB,0,state,34,3.0,False,4018127.0,25.0,0.8461700000000001,0.0882,-7.130489826202393,-34.8673095703125
2020-04-04,PE,0,state,176,14.0,False,9557071.0,26.0,1.8415700000000002,0.0795,-8.085169792175293,-34.91463851928711
2020-04-04,PI,0,state,24,4.0,False,3273227.0,22.0,0.73322,0.1667,-5.105179786682129,-42.80194854736328
2020-04-04,PR,0,state,401,7.0,False,11433957.0,41.0,3.5071,0.0175,-25.430479049682617,-49.28451156616211
2020-04-04,RJ,0,state,1246,58.0,False,17264943.0,33.0,7.216939999999999,0.0465,-22.90880012512207,-43.196739196777344
2020-04-04,RN,0,state,215,6.0,False,3506853.0,24.0,6.13085,0.0279,-5.805920124053955,-35.210540771484375
2020-04-04,RO,0,state,11,1.0,False,1777225.0,11.0,0.6189399999999999,0.0909,-8.761899948120117,-63.90618896484375
2020-04-04,RR,0,state,42,1.0,False,605761.0,14.0,6.93343,0.0238,2.8242499828338623,-60.65742111206055
2020-04-04,RS,0,state,418,7.0,False,11377239.0,43.0,3.674,0.0167,-30.03952980041504,-51.2169303894043
2020-04-04,SC,0,state,356,10.0,False,7164788.0,42.0,4.96874,0.0281,-27.59984016418457,-48.54182052612305
2020-04-04,SE,0,state,32,3.0,False,2298696.0,28.0,1.39209,0.0938,-10.910599708557129,-37.059898376464844
2020-04-04,SP,0,state,4466,260.0,False,45919049.0,35.0,9.725810000000001,0.0582,-23.53396987915039,-46.628868103027344
2020-04-04,TO,0,state,16,0.0,False,1572866.0,17.0,1.01725,0.0,-10.7767972946167,-53.06805419921875
2020-04-04,PA,Abaetetuba,city,1,0.0,False,157698.0,1500107.0,0.63412,0.0,-1.7288899421691895,-48.87382125854492
2020-04-04,CE,Abaiara,city,1,0.0,True,11737.0,2300101.0,8.52006,0.0,-7.360310077667236,-39.0477409362793
2020-04-04,AC,Acrelândia,city,9,0.0,False,15256.0,1200013.0,58.99318,0.0,-10.076239585876465,-67.05326843261719
2020-04-04,SP,Adamantina,city,1,0.0,False,35068.0,3500105.0,2.8516,0.0,-21.687650680541992,-51.0724983215332
2020-04-04,BA,Adustina,city,1,0.0,False,17040.0,2900355.0,5.86854,0.0,-10.536649703979492,-38.1186408996582
2020-04-04,ES,Afonso Cláudio,city,1,0.0,False,30586.0,3200102.0,3.26947,0.0,-20.074119567871094,-41.12117004394531
2020-04-04,SP,Agudos,city,1,0.0,False,37214.0,3500709.0,2.68716,0.0,-22.472850799560547,-48.98902130126953
2020-04-04,BA,Alagoinhas,city,4,0.0,False,151596.0,2900702.0,2.63859,0.0,-12.136770248413086,-38.423038482666016
2020-04-04,MS,Alcinópolis,city,1,0.0,False,5343.0,5000252.0,18.716079999999998,0.0,-18.3239803314209,-53.70423889160156
2020-04-04,RS,Alegrete,city,1,0.0,False,73589.0,4300406.0,1.3589,0.0,-29.784400939941406,-55.79130935668945
2020-04-04,MG,Alfenas,city,1,0.0,False,79996.0,3101607.0,1.25006,0.0,-21.43609046936035,-45.94480895996094
2020-04-04,PE,Aliança,city,1,0.0,False,38386.0,2600708.0,2.60512,0.0,-7.605219841003418,-35.22235870361328
2020-04-04,PR,Almirante Tamandaré,city,3,0.0,False,118623.0,4100400.0,2.52902,0.0,-25.316570281982422,-49.30155944824219
2020-04-04,MT,Alta Floresta,city,1,0.0,False,51782.0,5100250.0,1.93117,0.0,-9.876669883728027,-56.08612060546875
2020-04-04,PA,Altamira,city,1,0.0,False,114594.0,1500602.0,0.87265,0.0,-3.1951398849487305,-52.20845031738281
2020-04-04,ES,Alto Rio Novo,city,1,0.0,False,7836.0,3200359.0,12.761610000000001,0.0,-19.05927085876465,-41.017539978027344
2020-04-04,RS,Alvorada,city,3,0.0,False,210305.0,4300604.0,1.4265,0.0,-30.00057029724121,-51.07857894897461
2020-04-04,SP,Americana,city,3,1.0,False,239597.0,3501608.0,1.2521,0.3333,-22.7390193939209,-47.331878662109375
2020-04-04,PA,Ananindeua,city,10,0.0,False,530598.0,1500800.0,1.88467,0.0,-1.3660000562667847,-48.37211990356445
2020-04-04,RJ,Angra dos Reis,city,2,0.0,False,203785.0,3300100.0,0.9814299999999999,0.0,-23.007129669189453,-44.3131103515625
2020-04-04,AM,Anori,city,1,0.0,False,21010.0,1300102.0,4.75964,0.0,-3.743149995803833,-61.65835952758789
2020-04-04,RS,Anta Gorda,city,2,0.0,False,5981.0,4300703.0,33.43922,0.0,-28.97241973876953,-52.00492858886719
2020-04-04,SC,Antônio Carlos,city,8,1.0,False,8513.0,4201208.0,93.97391999999999,0.125,-27.517229080200195,-48.767948150634766
2020-04-04,GO,Anápolis,city,6,0.0,False,386923.0,5201108.0,1.5507,0.0,-16.328659057617188,-48.95294952392578
2020-04-04,GO,Aparecida de Goiânia,city,4,0.0,False,578179.0,5201405.0,0.6918300000000001,0.0,-16.822629928588867,-49.25107955932617
2020-04-04,RN,Apodi,city,1,0.0,False,35845.0,2401008.0,2.78979,0.0,-5.663090229034424,-37.79819869995117
2020-04-04,CE,Aquiraz,city,15,0.0,False,80271.0,2301000.0,18.6867,0.0,-3.898940086364746,-38.367488861083984
2020-04-04,SE,Aracaju,city,27,3.0,False,657013.0,2800308.0,4.10951,0.1111,-10.909210205078125,-37.074459075927734
2020-04-04,ES,Aracruz,city,4,0.0,False,101220.0,3200607.0,3.9517900000000004,0.0,-19.83877944946289,-40.26620864868164
2020-04-04,MG,Araguari,city,1,0.0,False,117267.0,3103504.0,0.85275,0.0,-18.65121078491211,-48.19464111328125
2020-04-04,TO,Araguaína,city,4,0.0,False,180470.0,1702109.0,2.21643,0.0,-7.191969871520996,-48.2081413269043
2020-04-04,PR,Arapongas,city,2,0.0,False,123027.0,4101507.0,1.62566,0.0,-23.41904067993164,-51.42584991455078
2020-04-04,SC,Araranguá,city,2,0.0,False,68228.0,4201406.0,2.93135,0.0,-28.935810089111328,-49.48646926879883
2020-04-04,SP,Araraquara,city,2,0.0,False,236072.0,3503208.0,0.8472,0.0,-21.79319953918457,-48.17544174194336
2020-04-04,RJ,Araruama,city,1,0.0,False,132400.0,3300209.0,0.75529,0.0,-22.876659393310547,-42.33958053588867
2020-04-04,PR,Araruna,city,2,0.0,False,13970.0,4101705.0,14.31639,0.0,-23.929140090942383,-52.498409271240234
2020-04-04,PR,Araucária,city,2,0.0,False,143843.0,4101804.0,1.3904,0.0,-25.577999114990234,-49.39789962768555
2020-04-04,SP,Araçatuba,city,4,0.0,False,197016.0,3502804.0,2.03029,0.0,-21.211000442504883,-50.43341827392578
2020-04-04,MG,Arcos,city,1,0.0,False,40092.0,3104205.0,2.4942599999999997,0.0,-20.286630630493164,-45.544368743896484
2020-04-04,RJ,Arraial do Cabo,city,1,1.0,False,30349.0,3300258.0,3.295,1.0,-22.954530715942383,-42.036651611328125
2020-04-04,SP,Arujá,city,5,1.0,False,89824.0,3503901.0,5.56644,0.2,-23.396310806274414,-46.32170867919922
2020-04-04,SP,Assis,city,1,0.0,False,104386.0,3504008.0,0.9579799999999999,0.0,-22.660999298095703,-50.404598236083984
2020-04-04,PR,Assis Chateaubriand,city,2,0.0,False,33362.0,4102000.0,5.99484,0.0,-24.40683937072754,-53.507118225097656
2020-04-04,SP,Atibaia,city,3,0.0,False,142761.0,3504107.0,2.10141,0.0,-23.117250442504883,-46.549869537353516
2020-04-04,MA,Açailândia,city,1,0.0,False,112445.0,2100055.0,0.8893200000000001,0.0,-4.954100131988525,-47.503089904785156
2020-04-04,RN,Açu,city,6,0.0,False,58017.0,2400208.0,10.3418,0.0,-5.576200008392334,-36.914859771728516
2020-04-04,RS,Bagé,city,18,0.0,False,121143.0,4301602.0,14.85847,0.0,-31.32862091064453,-54.10736083984375
2020-04-04,SC,Balneário Arroio do Silva,city,1,0.0,False,13071.0,4201950.0,7.6505199999999975,0.0,-28.98764991760254,-49.418540954589844
2020-04-04,SC,Balneário Camboriú,city,12,0.0,False,142295.0,4202008.0,8.43318,0.0,-26.983299255371094,-48.63330078125
2020-04-04,SC,Balneário Gaivota,city,1,1.0,False,10979.0,4202073.0,9.1083,1.0,-29.152910232543945,-49.584068298339844
2020-04-04,MG,Barbacena,city,1,0.0,False,137313.0,3105608.0,0.72826,0.0,-21.214550018310547,-43.77037048339844
2020-04-04,PA,Barcarena,city,3,0.0,False,124680.0,1501303.0,2.40616,0.0,-1.5195900201797485,-48.617591857910156
2020-04-04,BA,Barra,city,1,0.0,False,53578.0,2902708.0,1.86644,0.0,-11.088809967041016,-43.13922882080078
2020-04-04,RJ,Barra Mansa,city,3,0.0,False,184412.0,3300407.0,1.62679,0.0,-22.54132080078125,-44.169090270996094
2020-04-04,RJ,Barra do Piraí,city,2,0.0,False,100374.0,3300308.0,1.99255,0.0,-22.464290618896484,-43.82329177856445
2020-04-04,BA,Barra do Rocha,city,1,0.0,False,5714.0,2903102.0,17.50088,0.0,-14.23330020904541,-39.650001525878906
2020-04-04,BA,Barreiras,city,1,0.0,False,155439.0,2903201.0,0.6433399999999999,0.0,-12.147640228271484,-44.99489974975586
2020-04-04,SP,Barueri,city,29,1.0,False,274182.0,3505708.0,10.57692,0.0345,-23.50428009033203,-46.844608306884766
2020-04-04,MS,Batayporã,city,5,1.0,False,11329.0,5002001.0,44.13452,0.2,-22.293270111083984,-53.26736068725586
2020-04-04,SP,Bauru,city,2,0.0,False,376818.0,3506003.0,0.53076,0.0,-22.33068084716797,-49.06972885131836
2020-04-04,RN,Baía Formosa,city,1,0.0,False,9271.0,2401404.0,10.78632,0.0,-6.371240139007568,-35.005279541015625
2020-04-04,CE,Beberibe,city,1,0.0,False,53573.0,2302206.0,1.8666099999999999,0.0,-4.189370155334473,-38.11796951293945
2020-04-04,RJ,Belford Roxo,city,7,2.0,False,510906.0,3300456.0,1.37012,0.2857,-22.763620376586914,-43.399681091308594
2020-04-04,BA,Belmonte,city,1,0.0,False,23328.0,2903409.0,4.28669,0.0,-15.861410140991211,-38.879478454589844
2020-04-04,MG,Belo Horizonte,city,237,3.0,False,2512070.0,3106200.0,9.43445,0.0127,-19.919519424438477,-43.938331604003906
2020-04-04,PE,Belo Jardim,city,1,0.0,False,76439.0,2601706.0,1.30823,0.0,-8.337360382080078,-36.424400329589844
2020-04-04,PA,Belém,city,45,0.0,False,1492745.0,1501402.0,3.01458,0.0,-1.4564299583435059,-48.50326919555664
2020-04-04,PA,Benevides,city,1,0.0,False,62737.0,1501501.0,1.59396,0.0,-1.3611799478530884,-48.24338912963867
2020-04-04,RS,Bento Gonçalves,city,9,0.0,False,120454.0,4302105.0,7.47173,0.0,-29.174270629882812,-51.51852035522461
2020-04-04,MG,Betim,city,5,0.0,False,439340.0,3106705.0,1.1380700000000001,0.0,-19.967649459838867,-44.199249267578125
2020-04-04,SC,Biguaçu,city,1,0.0,False,68481.0,4202305.0,1.4602600000000001,0.0,-27.493860244750977,-48.65663146972656
2020-04-04,SC,Blumenau,city,26,0.0,False,357199.0,4202404.0,7.278860000000001,0.0,-26.91840934753418,-49.06673049926758
2020-04-04,MG,Boa Esperança,city,1,0.0,False,40127.0,3107109.0,2.49209,0.0,-21.091970443725586,-45.56327819824219
2020-04-04,RR,Boa Vista,city,36,1.0,False,399213.0,1400100.0,9.01774,0.0278,2.8217499256134033,-60.673561096191406
2020-04-04,AM,Boca do Acre,city,1,0.0,False,34308.0,1300706.0,2.91477,0.0,-8.745590209960938,-67.39726257324219
2020-04-04,MG,Bom Despacho,city,1,0.0,False,50605.0,3107406.0,1.9760900000000001,0.0,-19.736770629882812,-45.251991271972656
2020-04-04,GO,Bom Jesus de Goiás,city,1,0.0,False,25216.0,5203500.0,3.9657400000000003,0.0,-18.217519760131836,-49.74066162109375
2020-04-04,RR,Bonfim,city,3,0.0,False,12409.0,1400159.0,24.176,0.0,3.3611900806427,-59.83652114868164
2020-04-04,SP,Botucatu,city,7,0.0,False,146497.0,3507506.0,4.77825,0.0,-22.890499114990234,-48.45621109008789
2020-04-04,DF,Brasília,city,456,7.0,False,3015268.0,5300108.0,15.123029999999998,0.0154,-15.778429985046387,-47.92864990234375
2020-04-04,SC,Braço do Norte,city,15,0.0,False,33450.0,4202800.0,44.84305,0.0,-28.28342056274414,-49.15863037109375
2020-04-04,SP,Brodowski,city,1,0.0,False,24939.0,3507803.0,4.00978,0.0,-20.983980178833008,-47.659629821777344
2020-04-04,BA,Brumado,city,5,0.0,False,67195.0,2904605.0,7.4410300000000005,0.0,-14.20028018951416,-41.6675910949707
2020-04-04,SC,Brusque,city,6,0.0,False,134723.0,4202909.0,4.4535800000000005,0.0,-27.09531021118164,-48.91875076293945
2020-04-04,PB,Cabedelo,city,1,0.0,False,67736.0,2503209.0,1.47632,0.0,-6.977940082550049,-34.833709716796875
2020-04-04,PE,Cabo de Santo Agostinho,city,4,1.0,False,207048.0,2602902.0,1.93192,0.25,-8.286760330200195,-35.038700103759766
2020-04-04,BA,Cachoeira,city,1,0.0,False,33470.0,2904902.0,2.98775,0.0,-12.601639747619629,-38.962989807128906
2020-04-04,SP,Cachoeira Paulista,city,1,0.0,False,33327.0,3508603.0,3.00057,0.0,-22.6700496673584,-45.00693893432617
2020-04-04,RS,Cachoeira do Sul,city,1,0.0,False,82201.0,4303004.0,1.21653,0.0,-30.048959732055664,-52.88861846923828
2020-04-04,RS,Cachoeirinha,city,2,0.0,False,130293.0,4303103.0,1.535,0.0,-29.949039459228516,-51.095680236816406
2020-04-04,ES,Cachoeiro de Itapemirim,city,1,0.0,False,208972.0,3201209.0,0.47853,0.0,-20.84918975830078,-41.1131706237793
2020-04-04,RN,Caicó,city,2,0.0,False,67952.0,2402006.0,2.94325,0.0,-6.460370063781738,-37.09819030761719
2020-04-04,SP,Caieiras,city,19,1.0,False,101470.0,3509007.0,18.72475,0.0526,-23.364519119262695,-46.740081787109375
2020-04-04,SP,Cajamar,city,1,0.0,False,76801.0,3509205.0,1.30207,0.0,-23.356359481811523,-46.876991271972656
2020-04-04,GO,Caldas Novas,city,1,0.0,False,91162.0,5204508.0,1.09695,0.0,-17.745800018310547,-48.62583923339844
2020-04-04,RS,Camaquã,city,1,0.0,False,66261.0,4303509.0,1.50918,0.0,-30.851030349731445,-51.81256866455078
2020-04-04,PE,Camaragibe,city,6,0.0,False,157828.0,2603454.0,3.8016099999999997,0.0,-8.000029563903809,-34.99324035644531
2020-04-04,BA,Camaçari,city,5,0.0,False,299132.0,2905701.0,1.6715,0.0,-12.69379997253418,-38.3231086730957
2020-04-04,SC,Camboriú,city,7,0.0,False,82989.0,4203204.0,8.43485,0.0,-26.991600036621094,-48.635990142822266
2020-04-04,PR,Cambé,city,2,0.0,False,106533.0,4103701.0,1.87735,0.0,-23.275279998779297,-51.28160858154297
2020-04-04,GO,Campestre de Goiás,city,1,0.0,False,3630.0,5204607.0,27.548209999999997,0.0,-16.76215934753418,-49.695030212402344
2020-04-04,PB,Campina Grande,city,2,0.0,False,409731.0,2504009.0,0.48813,0.0,-7.224050045013428,-35.8909912109375
2020-04-04,PR,Campina Grande do Sul,city,2,0.0,False,43288.0,4104006.0,4.62022,0.0,-25.306629180908203,-49.05270004272461
2020-04-04,SP,Campinas,city,26,4.0,False,1204073.0,3509502.0,2.1593400000000003,0.1538,-22.909019470214844,-47.06460189819336
2020-04-04,MG,Campo Belo,city,1,0.0,False,54029.0,3111200.0,1.85086,0.0,-20.89366912841797,-45.26969909667969
2020-04-04,RS,Campo Bom,city,3,0.0,False,66712.0,4303905.0,4.49694,0.0,-29.58502960205078,-51.08980941772461
2020-04-04,MS,Campo Grande,city,43,0.0,False,895982.0,5002704.0,4.7992,0.0,-20.456300735473633,-54.61532974243164
2020-04-04,PR,Campo Largo,city,8,0.0,False,132002.0,4104204.0,6.06051,0.0,-25.454450607299805,-49.514549255371094
2020-04-04,PR,Campo Magro,city,1,0.0,False,29318.0,4104253.0,3.4108699999999996,0.0,-25.372539520263672,-49.43531036376953
2020-04-04,PI,Campo Maior,city,1,0.0,False,46833.0,2202208.0,2.13525,0.0,-4.829110145568848,-42.170021057128906
2020-04-04,PR,Campo Mourão,city,11,1.0,False,94859.0,4104303.0,11.596160000000001,0.0909,-24.0462703704834,-52.38420104980469
2020-04-04,MT,Campo Novo do Parecis,city,1,0.0,False,35360.0,5102637.0,2.82805,0.0,-13.6599702835083,-57.89291000366211
2020-04-04,MG,Campos Altos,city,1,0.0,False,15461.0,3111507.0,6.4678900000000015,0.0,-19.697410583496094,-46.16944885253906
2020-04-04,RJ,Campos dos Goytacazes,city,1,0.0,False,507548.0,3301009.0,0.19702999999999998,0.0,-21.754600524902344,-41.324188232421875
2020-04-04,BA,Canarana,city,1,0.0,False,26176.0,2906204.0,3.82029,0.0,-11.68616008758545,-41.7676887512207
2020-04-04,BA,Candeias,city,1,0.0,False,87076.0,2906501.0,1.14842,0.0,-12.674790382385254,-38.54270935058594
2020-04-04,SC,Canelinha,city,1,0.0,False,12240.0,4203709.0,8.16993,0.0,-27.265560150146484,-48.76789093017578
2020-04-04,RS,Canguçu,city,1,0.0,False,56045.0,4304507.0,1.7842799999999999,0.0,-31.405290603637695,-52.682621002197266
2020-04-04,CE,Canindé,city,1,0.0,False,76997.0,2302800.0,1.29875,0.0,-4.359139919281006,-39.31547164916992
2020-04-04,RS,Canoas,city,8,0.0,False,346616.0,4304606.0,2.30803,0.0,-29.91522979736328,-51.18267822265625
2020-04-04,RR,Cantá,city,3,0.0,False,18335.0,1400175.0,16.36215,0.0,2.6093199253082275,-60.59727096557617
2020-04-04,SE,Capela,city,1,0.0,False,34213.0,2801306.0,2.92287,0.0,-10.508489608764648,-37.056671142578125
2020-04-04,MG,Capitólio,city,1,0.0,False,8632.0,3112802.0,11.5848,0.0,-20.615009307861328,-46.055198669433594
2020-04-04,RS,Capão da Canoa,city,2,0.0,False,53049.0,4304630.0,3.7701,0.0,-29.74785041809082,-50.01974105834961
2020-04-04,RS,Capão do Leão,city,1,0.0,False,25354.0,4304663.0,3.94415,0.0,-31.76055908203125,-52.43743133544922
2020-04-04,SP,Carapicuíba,city,11,1.0,False,400927.0,3510609.0,2.74364,0.0909,-23.52511978149414,-46.835689544677734
2020-04-04,RN,Caraúbas,city,1,0.0,False,20493.0,2402303.0,4.87972,0.0,-5.787839889526367,-37.55910873413086
2020-04-04,AM,Careiro da Várzea,city,1,0.0,False,30225.0,1301159.0,3.3085199999999997,0.0,-3.197499990463257,-59.82543182373047
2020-04-04,ES,Cariacica,city,14,0.0,False,381285.0,3201308.0,3.67179,0.0,-20.314979553222656,-40.384700775146484
2020-04-04,RS,Carlos Barbosa,city,1,0.0,False,29833.0,4304804.0,3.3519900000000002,0.0,-29.300750732421875,-51.505149841308594
2020-04-04,MG,Carmo da Cachoeira,city,1,0.0,False,12170.0,3113909.0,8.21693,0.0,-21.455230712890625,-45.21638870239258
2020-04-04,MG,Carmo do Cajuru,city,1,0.0,False,22478.0,3114204.0,4.44879,0.0,-20.18730926513672,-44.77280044555664
2020-04-04,RN,Carnaubais,city,1,0.0,False,10759.0,2402501.0,9.29454,0.0,-5.340000152587891,-36.830501556396484
2020-04-04,PE,Caruaru,city,2,0.0,False,361118.0,2604106.0,0.55384,0.0,-8.277700424194336,-35.98154067993164
2020-04-04,PR,Cascavel,city,29,1.0,False,328454.0,4104808.0,8.829239999999997,0.0345,-24.96363067626953,-53.45365905761719
2020-04-04,PA,Castanhal,city,2,0.0,False,200793.0,1502400.0,0.99605,0.0,-1.2860100269317627,-47.91379165649414
2020-04-04,ES,Castelo,city,2,0.0,False,37534.0,3201407.0,5.3285,0.0,-20.597789764404297,-41.20484924316406
2020-04-04,PR,Castro,city,2,0.0,False,71484.0,4104907.0,2.79783,0.0,-24.791790008544922,-50.01152038574219
2020-04-04,GO,Catalão,city,1,0.0,False,108823.0,5205109.0,0.9189200000000001,0.0,-12.22511,-38.97552
2020-04-04,BA,Catu,city,1,0.0,False,54704.0,2907509.0,1.82802,0.0,-12.358779907226562,-38.38560104370117
2020-04-04,CE,Caucaia,city,4,0.0,False,361400.0,2303709.0,1.10681,0.0,-3.735419988632202,-38.66088104248047
2020-04-04,RS,Caxias do Sul,city,13,0.0,False,510906.0,4305108.0,2.5445,0.0,-29.16781997680664,-51.178958892822266
2020-04-04,RN,Ceará-Mirim,city,3,0.0,False,73497.0,2402600.0,4.0818,0.0,-5.635200023651123,-35.41960144042969
2020-04-04,SP,Cedral,city,1,0.0,False,9237.0,3511300.0,10.826030000000001,0.0,-20.904619216918945,-49.268028259277344
2020-04-04,RS,Cerro Grande do Sul,city,1,0.0,False,12239.0,4305173.0,8.1706,0.0,-30.59408950805664,-51.75127029418945
2020-04-04,SC,Chapecó,city,5,0.0,False,220367.0,4204202.0,2.26894,0.0,-27.113040924072266,-52.61191940307617
2020-04-04,RS,Charqueadas,city,1,0.0,False,40789.0,4305355.0,2.4516400000000003,0.0,-29.955080032348633,-51.62533950805664
2020-04-04,PR,Chopinzinho,city,1,0.0,False,19254.0,4105409.0,5.19373,0.0,-25.855880737304688,-52.52809143066406
2020-04-04,PR,Cianorte,city,11,1.0,False,82620.0,4105508.0,13.313970000000001,0.0909,-23.663230895996094,-52.60538864135742
2020-04-04,GO,Cidade Ocidental,city,1,0.0,False,71376.0,5205497.0,1.40103,0.0,-16.113630294799805,-47.93791961669922
2020-04-04,BA,Coaraci,city,1,0.0,False,16993.0,2908002.0,5.88478,0.0,-14.636619567871094,-39.55495071411133
2020-04-04,ES,Colatina,city,1,0.0,False,122499.0,3201506.0,0.81633,0.0,-19.534320831298828,-40.62807083129883
2020-04-04,PR,Colombo,city,4,0.0,False,243726.0,4105805.0,1.6411900000000001,0.0,-25.292129516601562,-49.2259407043457
2020-04-04,BA,Conceição do Jacuípe,city,1,0.0,False,33153.0,2908507.0,3.01632,0.0,-12.403260231018066,-38.753780364990234
2020-04-04,BA,Conde,city,1,0.0,False,25837.0,2908606.0,3.8704199999999997,0.0,-11.813929557800293,-37.61051940917969
2020-04-04,MG,Contagem,city,11,0.0,False,663855.0,3118601.0,1.6569900000000002,0.0,-19.964399337768555,-44.02671813964844
2020-04-04,PR,Contenda,city,1,0.0,False,18584.0,4106209.0,5.38097,0.0,-25.679170608520508,-49.526851654052734
2020-04-04,PR,Cornélio Procópio,city,1,0.0,False,47845.0,4106407.0,2.09008,0.0,-23.181419372558594,-50.64801025390625
2020-04-04,MG,Coronel Fabriciano,city,2,0.0,False,109855.0,3119401.0,1.8205799999999999,0.0,-19.52235984802246,-42.624488830566406
2020-04-04,SP,Cotia,city,28,2.0,False,249210.0,3513009.0,11.2355,0.0714,-23.604219436645508,-46.924560546875
2020-04-04,SP,Cravinhos,city,2,1.0,False,35292.0,3513108.0,5.667009999999999,0.5,-21.340320587158203,-47.735469818115234
2020-04-04,SC,Criciúma,city,27,1.0,False,215186.0,4204608.0,12.54728,0.037000000000000005,-28.67799949645996,-49.37165069580078
2020-04-04,RS,Cruzeiro do Sul,city,1,0.0,False,12348.0,4306205.0,8.09848,0.0,-29.513179779052734,-51.98830032348633
2020-04-04,MT,Cuiabá,city,38,0.0,False,612547.0,5103403.0,6.20361,0.0,-15.598759651184082,-56.09463882446289
2020-04-04,PR,Curitiba,city,153,0.0,False,1933105.0,4106902.0,7.9147300000000005,0.0,-25.439979553222656,-49.27653884887695
2020-04-04,SP,Diadema,city,23,1.0,False,423884.0,3513801.0,5.42601,0.0435,-23.688899993896484,-46.625831604003906
2020-04-04,TO,Dianópolis,city,1,0.0,False,22139.0,1707009.0,4.51692,0.0,-11.624879837036133,-46.820228576660156
2020-04-04,BA,Dias d'Ávila,city,1,0.0,False,81089.0,2910057.0,1.2332100000000001,0.0,-12.614130020141602,-38.297298431396484
2020-04-04,MG,Divinópolis,city,14,0.0,False,238230.0,3122306.0,5.87667,0.0,-20.1389102935791,-44.887290954589844
2020-04-04,RS,Dois Irmãos,city,2,0.0,False,32671.0,4306403.0,6.12164,0.0,-29.58502960205078,-51.08980941772461
2020-04-04,RS,Dom Pedrito,city,1,0.0,False,38461.0,4306601.0,2.6000400000000004,0.0,-30.982370376586914,-54.67757034301758
2020-04-04,MS,Dourados,city,6,0.0,False,222949.0,5003702.0,2.6912,0.0,-22.229110717773438,-54.81092834472656
2020-04-04,SP,Dracena,city,1,1.0,False,46793.0,3514403.0,2.13707,1.0,-21.474010467529297,-51.528011322021484
2020-04-04,RJ,Duque de Caxias,city,13,3.0,False,919596.0,3301702.0,1.4136600000000001,0.2308,-22.787410736083984,-43.31298065185547
2020-04-04,RS,Eldorado do Sul,city,1,0.0,False,41285.0,4306767.0,2.42219,0.0,-29.997379302978516,-51.310340881347656
2020-04-04,SP,Embu das Artes,city,19,1.0,False,273726.0,3515004.0,6.94125,0.0526,-23.648910522460938,-46.852909088134766
2020-04-04,RS,Erechim,city,3,0.0,False,105862.0,4307005.0,2.8338799999999997,0.0,-27.635900497436523,-52.274658203125
2020-04-04,MG,Esmeraldas,city,1,0.0,False,70552.0,3124104.0,1.41739,0.0,-19.76243019104004,-44.3129997253418
2020-04-04,RS,Estrela,city,1,0.0,False,34116.0,4307807.0,2.93118,0.0,-29.50082015991211,-51.96392059326172
2020-04-04,RS,Estância Velha,city,3,0.0,False,50022.0,4307609.0,5.99736,0.0,-29.6518497467041,-51.174739837646484
2020-04-04,CE,Eusébio,city,1,1.0,False,53618.0,2304285.0,1.86505,1.0,-3.890820026397705,-38.4498405456543
2020-04-04,MG,Extrema,city,1,0.0,False,36225.0,3125101.0,2.76052,0.0,-22.853919982910156,-46.31837844848633
2020-04-04,RN,Extremoz,city,5,0.0,False,28583.0,2403608.0,17.49292,0.0,-5.705920219421387,-35.302738189697266
2020-04-04,CE,Farias Brito,city,1,1.0,False,19450.0,2304301.0,5.14139,1.0,-6.927919864654541,-39.57115173339844
2020-04-04,RS,Farroupilha,city,2,0.0,False,72331.0,4307906.0,2.76507,0.0,-29.224720001220703,-51.3484992980957
2020-04-04,PR,Faxinal,city,1,0.0,False,17251.0,4107603.0,5.7967699999999995,0.0,-24.001440048217773,-51.318119049072266
2020-04-04,PR,Fazenda Rio Grande,city,2,0.0,False,100209.0,4107652.0,1.99583,0.0,-25.64703941345215,-49.31262969970703
2020-04-04,BA,Feira de Santana,city,23,0.0,False,614872.0,2910800.0,3.74062,0.0,-12.25551986694336,-38.95991897583008
2020-04-04,PE,Fernando de Noronha,city,7,0.0,False,3061.0,2605459.0,228.68344,0.0,-3.844899892807007,-32.408668518066406
2020-04-04,SP,Ferraz de Vasconcelos,city,15,0.0,False,194276.0,3515707.0,7.720969999999999,0.0,-23.543039321899414,-46.37017822265625
2020-04-04,SC,Florianópolis,city,91,2.0,False,500973.0,4205407.0,18.16465,0.022000000000000002,-27.59758949279785,-48.54798889160156
2020-04-04,CE,Fortaleza,city,681,18.0,False,2669342.0,2304400.0,25.51191,0.0264,-3.718410015106201,-38.54288101196289
2020-04-04,CE,Fortim,city,1,0.0,False,16480.0,2304459.0,6.06796,0.0,-4.450870037078857,-37.79644012451172
2020-04-04,PR,Foz do Iguaçu,city,24,0.0,False,258532.0,4108304.0,9.28318,0.0,-25.515710830688477,-54.57011032104492
2020-04-04,SP,Franca,city,2,0.0,False,353187.0,3516200.0,0.5662699999999999,0.0,-20.52794075012207,-47.391910552978516
2020-04-04,PR,Francisco Beltrão,city,1,0.0,False,91093.0,4108403.0,1.09778,0.0,-26.080209732055664,-53.05495071411133
2020-04-04,SP,Francisco Morato,city,8,1.0,False,175844.0,3516309.0,4.5494900000000005,0.125,-23.280620574951172,-46.743099212646484
2020-04-04,SP,Franco da Rocha,city,7,1.0,False,154489.0,3516408.0,4.53107,0.1429,-23.32271957397461,-46.72526931762695
2020-04-04,ES,Fundão,city,1,0.0,False,21509.0,3202207.0,4.64922,0.0,-19.93470001220703,-40.405338287353516
2020-04-04,BA,Gandu,city,1,0.0,False,32403.0,2911204.0,3.08613,0.0,-13.745229721069336,-39.4864501953125
2020-04-04,RS,Garibaldi,city,1,0.0,False,35070.0,4308607.0,2.85144,0.0,-29.254169464111328,-51.53110122680664
2020-04-04,SC,Gaspar,city,2,0.0,False,69639.0,4205902.0,2.87195,0.0,-26.932029724121094,-48.95867156982422
2020-04-04,PE,Goiana,city,1,1.0,False,79758.0,2606200.0,1.25379,1.0,-7.5624098777771,-34.99842834472656
2020-04-04,GO,Goianésia,city,1,0.0,False,70084.0,5208608.0,1.42686,0.0,-15.326899528503418,-49.11729049682617
2020-04-04,PA,Goianésia do Pará,city,1,0.0,False,40475.0,1503093.0,2.4706599999999996,0.0,-3.8435800075531006,-49.09975051879883
2020-04-04,PR,Goioerê,city,1,0.0,False,28884.0,4108601.0,3.4621199999999996,0.0,-24.185020446777344,-53.01911926269531
2020-04-04,GO,Goiânia,city,65,1.0,False,1516113.0,5208707.0,4.28728,0.0154,-16.679309844970703,-49.25645065307617
2020-04-04,SC,Governador Celso Ramos,city,1,0.0,False,14471.0,4206009.0,6.9103699999999995,0.0,-27.32362937927246,-48.54064178466797
2020-04-04,MG,Governador Valadares,city,2,0.0,False,279885.0,3127701.0,0.71458,0.0,-18.848209381103516,-41.95035934448242
2020-04-04,SC,Gravatal,city,4,0.0,False,11501.0,4206207.0,34.779579999999996,0.0,-28.331809997558594,-49.03493118286133
2020-04-04,RS,Gravataí,city,9,0.0,False,281519.0,4309209.0,3.19694,0.0,-29.942359924316406,-50.99121856689453
2020-04-04,RJ,Guapimirim,city,2,0.0,False,60517.0,3301850.0,3.3048599999999997,0.0,-22.5214900970459,-42.979278564453125
2020-04-04,PR,Guaraniaçu,city,2,0.0,False,12472.0,4109302.0,16.03592,0.0,-25.101299285888672,-52.86827850341797
2020-04-04,ES,Guarapari,city,3,0.0,False,124859.0,3202405.0,2.40271,0.0,-20.672250747680664,-40.498958587646484
2020-04-04,PR,Guarapuava,city,1,0.0,False,181504.0,4109401.0,0.55095,0.0,-25.3930606842041,-51.45677185058594
2020-04-04,SP,Guararapes,city,2,0.0,False,32939.0,3518206.0,6.07183,0.0,-21.253009796142578,-50.64638900756836
2020-04-04,SP,Guarujá,city,3,0.0,False,320459.0,3518701.0,0.93616,0.0,-23.99428939819336,-46.257320404052734
2020-04-04,SP,Guarulhos,city,62,5.0,False,1379182.0,3518800.0,4.495419999999998,0.0806,-23.44352912902832,-46.5076789855957
2020-04-04,RS,Guaíba,city,1,0.0,False,98143.0,4309308.0,1.01892,0.0,-30.110549926757812,-51.31755828857422
2020-04-04,PR,Guaíra,city,2,0.0,False,33119.0,4108809.0,6.03883,0.0,-24.079469680786133,-54.2575798034668
2020-04-04,MG,Guimarânia,city,1,0.0,False,8039.0,3128907.0,12.43936,0.0,-18.84234046936035,-46.79383087158203
2020-04-04,GO,Hidrolândia,city,1,0.0,False,21706.0,5209705.0,4.6070199999999994,0.0,-16.968379974365234,-49.231910705566406
2020-04-04,CE,Horizonte,city,4,0.0,False,67337.0,2305233.0,5.94027,0.0,-4.10181999206543,-38.48326110839844
2020-04-04,SP,Hortolândia,city,2,0.0,False,230851.0,3519071.0,0.86636,0.0,-22.8726806640625,-47.209930419921875
2020-04-04,PR,Ibaiti,city,1,0.0,False,31364.0,4109708.0,3.18837,0.0,-23.85565948486328,-50.19483184814453
2020-04-04,PR,Ibema,city,1,0.0,False,6352.0,4109757.0,15.743070000000001,0.0,-25.114919662475586,-53.01438903808594
2020-04-04,CE,Icó,city,2,0.0,False,68018.0,2305407.0,2.9404,0.0,-6.40369987487793,-38.85253143310547
2020-04-04,PB,Igaracy,city,1,0.0,False,6117.0,2502607.0,16.34788,0.0,-7.174789905548096,-38.14616012573242
2020-04-04,RJ,Iguaba Grande,city,1,0.0,False,28310.0,3301876.0,3.53232,0.0,-22.841039657592773,-42.22397994995117
2020-04-04,BA,Ilhéus,city,10,0.0,False,162327.0,2913606.0,6.1604,0.0,-14.787819862365723,-39.04756164550781
2020-04-04,SC,Imbituba,city,6,0.0,False,44853.0,4207304.0,13.37703,0.0,-28.23805046081543,-48.66965866088867
2020-04-04,MA,Imperatriz,city,1,0.0,False,258682.0,2105302.0,0.38658000000000003,0.0,-5.526209831237793,-47.477481842041016
2020-04-04,SC,Indaial,city,1,0.0,False,69425.0,4207502.0,1.4404,0.0,-26.896949768066406,-49.2322883605957
2020-04-04,SP,Indaiatuba,city,2,0.0,False,251627.0,3520509.0,0.79483,0.0,-23.087650299072266,-47.22294998168945
2020-04-04,CE,Ipaporanga,city,1,0.0,False,11593.0,2305654.0,8.62589,0.0,-4.904980182647705,-40.76411056518555
2020-04-04,MG,Ipatinga,city,1,0.0,False,263410.0,3131307.0,0.37964000000000003,0.0,-19.466920852661133,-42.536399841308594
2020-04-04,BA,Ipiaú,city,1,0.0,False,45873.0,2913903.0,2.17993,0.0,-14.132369995117188,-39.7342414855957
2020-04-04,PE,Ipubi,city,1,0.0,False,30854.0,2607307.0,3.24107,0.0,-7.651609897613525,-40.15119934082031
2020-04-04,SP,Iracemápolis,city,1,0.0,False,24235.0,3521408.0,4.12626,0.0,-22.581239700317383,-47.520259857177734
2020-04-04,SC,Irati,city,1,0.0,False,1930.0,4207858.0,51.81347,0.0,-26.657440185546875,-52.892181396484375
2020-04-04,PR,Iretama,city,1,0.0,False,10169.0,4110805.0,9.83381,0.0,-24.423709869384766,-52.108070373535156
2020-04-04,SE,Itabaiana,city,1,0.0,False,95427.0,2802908.0,1.04792,0.0,-10.68634033203125,-37.424560546875
2020-04-04,MG,Itabira,city,1,0.0,False,120060.0,3131703.0,0.8329200000000001,0.0,-19.6370906829834,-43.22882843017578
2020-04-04,RJ,Itaboraí,city,13,0.0,False,240592.0,3301900.0,5.40334,0.0,-22.747520446777344,-42.860679626464844
2020-04-04,BA,Itabuna,city,6,0.0,False,213223.0,2914802.0,2.81396,0.0,-14.788949966430664,-39.277191162109375
2020-04-04,AM,Itacoatiara,city,4,0.0,False,101337.0,1301902.0,3.9472300000000002,0.0,-3.1420600414276123,-58.44083023071289
2020-04-04,BA,Itagibá,city,2,0.0,False,14579.0,2915205.0,13.71836,0.0,-14.288619995117188,-39.844451904296875
2020-04-04,RJ,Itaguaí,city,2,0.0,False,133019.0,3302007.0,1.5035399999999999,0.0,-22.856340408325195,-43.774051666259766
2020-04-04,CE,Itaitinga,city,1,0.0,False,37980.0,2306256.0,2.6329599999999997,0.0,-3.9720799922943115,-38.52888107299805
2020-04-04,PA,Itaituba,city,3,0.0,False,101247.0,1503606.0,2.96305,0.0,-4.269179821014404,-55.98952102661133
2020-04-04,SC,Itajaí,city,20,1.0,False,219536.0,4208203.0,9.11012,0.05,-26.90835952758789,-48.662601470947266
2020-04-04,BA,Itajuípe,city,3,0.0,False,20491.0,2915502.0,14.64057,0.0,-14.672940254211426,-39.375518798828125
2020-04-04,BA,Itamaraju,city,1,0.0,False,64486.0,2915601.0,1.55072,0.0,-17.04241943359375,-39.541839599609375
2020-04-04,SP,Itanhaém,city,2,0.0,False,101816.0,3522109.0,1.96433,0.0,-24.183490753173828,-46.78934860229492
2020-04-04,CE,Itapajé,city,1,0.0,True,52675.0,2306306.0,1.8984299999999998,0.0,-3.683029890060425,-39.585960388183594
2020-04-04,SP,Itapecerica da Serra,city,9,1.0,False,175693.0,3522208.0,5.12257,0.1111,-23.717830657958984,-46.84894943237305
2020-04-04,SC,Itapema,city,3,0.0,False,65312.0,4208302.0,4.59334,0.0,-27.090959548950195,-48.61240005493164
2020-04-04,ES,Itapemirim,city,1,0.0,False,34348.0,3202801.0,2.91138,0.0,-21.010080337524414,-40.83306121826172
2020-04-04,BA,Itapetinga,city,1,1.0,False,76147.0,2916401.0,1.31325,1.0,-15.254260063171387,-40.25020980834961
2020-04-04,SP,Itapevi,city,7,1.0,False,237700.0,3522505.0,2.94489,0.1429,-23.54191017150879,-46.92533874511719
2020-04-04,CE,Itapipoca,city,1,0.0,False,129358.0,2306405.0,0.77305,0.0,-3.501110076904297,-39.579559326171875
2020-04-04,SP,Itapira,city,1,0.0,False,74773.0,3522604.0,1.33738,0.0,-22.423709869384766,-46.82749938964844
2020-04-04,SC,Itapiranga,city,1,0.0,False,16872.0,4208401.0,5.92698,0.0,-27.172969818115234,-53.71099090576172
2020-04-04,SP,Itaquaquecetuba,city,10,0.0,False,370821.0,3523107.0,2.69672,0.0,-23.47871971130371,-46.35319900512695
2020-04-04,SP,Itararé,city,1,0.0,False,50503.0,3523206.0,1.9800799999999998,0.0,-24.112539291381836,-49.329681396484375
2020-04-04,BA,Itororó,city,4,0.0,False,20382.0,2917102.0,19.62516,0.0,-15.120420455932617,-40.0665283203125
2020-04-04,SP,Itu,city,1,0.0,False,173939.0,3523909.0,0.57491,0.0,-23.279460906982422,-47.30855941772461
2020-04-04,GO,Itumbiara,city,2,0.0,False,104742.0,5211503.0,1.90945,0.0,-18.403379440307617,-49.20759963989258
2020-04-04,SP,Itupeva,city,1,0.0,False,61252.0,3524006.0,1.6326,0.0,-23.1524600982666,-47.05794143676758
2020-04-04,RS,Ivoti,city,4,1.0,False,24293.0,4310801.0,16.46565,0.25,-29.594970703125,-51.16154098510742
2020-04-04,SC,Içara,city,1,0.0,False,56421.0,4207007.0,1.7723900000000001,0.0,-28.71384048461914,-49.29983139038086
2020-04-04,PE,Jaboatão dos Guararapes,city,11,0.0,False,702298.0,2607901.0,1.56629,0.0,-8.179550170898438,-34.94702911376953
2020-04-04,SP,Jaboticabal,city,3,1.0,False,77263.0,3524303.0,3.8828400000000003,0.3333,-21.25518035888672,-48.32244110107422
2020-04-04,CE,Jaguaribe,city,1,1.0,False,34682.0,2306900.0,2.88334,1.0,-5.892280101776123,-38.623291015625
2020-04-04,SP,Jaguariúna,city,1,0.0,False,57488.0,3524709.0,1.7394900000000002,0.0,-22.705839157104492,-46.986270904541016
2020-04-04,SC,Jaguaruna,city,2,0.0,False,20024.0,4208807.0,9.988010000000001,0.0,-28.628280639648438,-49.025020599365234
2020-04-04,SP,Jandira,city,2,0.0,False,124937.0,3525003.0,1.60081,0.0,-23.5345401763916,-46.90488815307617
2020-04-04,SC,Jaraguá do Sul,city,6,0.0,False,177697.0,4208906.0,3.3765300000000003,0.0,-26.492469787597656,-49.0767707824707
2020-04-04,RO,Jaru,city,1,0.0,False,51775.0,1100114.0,1.93143,0.0,-10.431870460510254,-62.47359085083008
2020-04-04,GO,Jataí,city,2,0.0,False,100882.0,5211909.0,1.9825099999999998,0.0,-17.884069442749023,-51.72365951538086
2020-04-04,SP,Jaú,city,1,0.0,False,150252.0,3525300.0,0.66555,0.0,-22.29652976989746,-48.56195831298828
2020-04-04,BA,Jequié,city,1,0.0,False,155966.0,2918001.0,0.64117,0.0,-13.859560012817383,-40.10747146606445
2020-04-04,RO,Ji-Paraná,city,1,0.0,False,128969.0,1100122.0,0.7753800000000001,0.0,-10.87483024597168,-61.95587158203125
2020-04-04,SC,Joaçaba,city,1,0.0,False,30118.0,4209003.0,3.32027,0.0,-27.176910400390625,-51.50408935546875
2020-04-04,SC,Joinville,city,20,1.0,False,590466.0,4209102.0,3.3871599999999997,0.05,-26.304880142211914,-48.84621047973633
2020-04-04,SP,José Bonifácio,city,1,0.0,False,37015.0,3525706.0,2.70161,0.0,-21.055999755859375,-49.68267059326172
2020-04-04,PB,João Pessoa,city,26,1.0,False,809015.0,2507507.0,3.21378,0.0385,-7.115260124206543,-34.861080169677734
2020-04-04,BA,Juazeiro,city,2,0.0,False,216707.0,2918407.0,0.92291,0.0,-9.4399995803833,-40.48247146606445
2020-04-04,CE,Juazeiro do Norte,city,1,0.0,False,274207.0,2307304.0,0.36469,0.0,-7.236599922180176,-39.32194137573242
2020-04-04,MG,Juiz de Fora,city,30,0.0,False,568873.0,3136702.0,5.27358,0.0,-21.765350341796875,-43.348690032958984
2020-04-04,PB,Junco do Seridó,city,1,1.0,False,7150.0,2507804.0,13.98601,1.0,-6.9941301345825195,-36.7153205871582
2020-04-04,SP,Jundiaí,city,6,0.0,False,418962.0,3525904.0,1.43211,0.0,-23.18807029724121,-46.891151428222656
2020-04-04,SC,Lages,city,3,0.0,False,157544.0,4209300.0,1.9042299999999999,0.0,-27.81970977783203,-50.320980072021484
2020-04-04,MG,Lagoa da Prata,city,5,0.0,False,52165.0,3137205.0,9.58497,0.0,-20.024850845336914,-45.532901763916016
2020-04-04,SC,Laguna,city,2,0.0,False,45814.0,4209409.0,4.365480000000002,0.0,-28.482959747314453,-48.783729553222656
2020-04-04,RS,Lajeado,city,6,0.0,False,84014.0,4311403.0,7.1416699999999995,0.0,-29.46816062927246,-51.964439392089844
2020-04-04,PR,Lapa,city,2,0.0,False,48163.0,4113205.0,4.15257,0.0,-25.77157974243164,-49.71881866455078
2020-04-04,BA,Lauro de Freitas,city,12,0.0,False,198440.0,2919207.0,6.0471699999999995,0.0,-12.893250465393066,-38.32712173461914
2020-04-04,MG,Lavras,city,2,0.0,False,103773.0,3138203.0,1.9272799999999999,0.0,-21.24530029296875,-45.00027847290039
2020-04-04,SP,Lençóis Paulista,city,1,0.0,False,68432.0,3526803.0,1.4613,0.0,-22.59449005126953,-48.806087493896484
2020-04-04,PR,Leópolis,city,1,0.0,False,3954.0,4113403.0,25.29084,0.0,-23.076499938964844,-50.750999450683594
2020-04-04,SP,Limeira,city,2,0.0,False,306114.0,3526902.0,0.65335,0.0,-22.5645809173584,-47.40296173095703
2020-04-04,ES,Linhares,city,8,0.0,False,173555.0,3203205.0,4.60949,0.0,-19.394420623779297,-40.06626892089844
2020-04-04,PR,Londrina,city,37,1.0,False,569733.0,4113700.0,6.4942699999999975,0.027000000000000003,-23.309959411621094,-51.165401458740234
2020-04-04,SP,Louveira,city,2,0.0,False,48885.0,3527306.0,4.09123,0.0,-23.08625030517578,-46.94942855834961
2020-04-04,MT,Lucas do Rio Verde,city,1,1.0,False,65534.0,5105259.0,1.52593,1.0,-13.064200401306152,-55.92163848876953
2020-04-04,GO,Luziânia,city,1,1.0,False,208299.0,5212501.0,0.48008,1.0,-16.151140213012695,-47.94038009643555
2020-04-04,RN,Luís Gomes,city,1,0.0,False,10116.0,2407005.0,9.88533,0.0,-6.413300037384033,-38.38689041137695
2020-04-04,AP,Macapá,city,28,1.0,False,503327.0,1600303.0,5.5629800000000005,0.0357,0.03407999873161316,-51.066490173339844
2020-04-04,RJ,Macaé,city,6,0.0,False,256672.0,3302403.0,2.3376099999999997,0.0,-22.372230529785156,-41.7853889465332
2020-04-04,RN,Macaíba,city,1,0.0,False,80792.0,2407104.0,1.23775,0.0,-5.859749794006348,-35.34980010986328
2020-04-04,AL,Maceió,city,17,2.0,False,1018948.0,2704302.0,1.66839,0.1176,-9.66648006439209,-35.734989166259766
2020-04-04,SC,Mafra,city,1,0.0,False,56292.0,4210100.0,1.77645,0.0,-26.111160278320312,-49.8067512512207
2020-04-04,RJ,Magé,city,5,0.0,False,245071.0,3302502.0,2.0402299999999998,0.0,-22.660539627075195,-43.03575134277344
2020-04-04,SP,Mairiporã,city,4,1.0,False,100179.0,3528502.0,3.99285,0.25,-23.317930221557617,-46.58721923828125
2020-04-04,AM,Manacapuru,city,10,2.0,False,97377.0,1302504.0,10.26937,0.2,-3.288499116897583,-60.62995910644531
2020-04-04,AM,Manaus,city,283,9.0,False,2182763.0,1302603.0,12.96522,0.0318,-3.109149932861328,-60.05179977416992
2020-04-04,PR,Mandirituba,city,1,0.0,False,26869.0,4114302.0,3.7217599999999997,0.0,-25.77117919921875,-49.32289123535156
2020-04-04,RJ,Mangaratiba,city,2,0.0,False,44468.0,3302601.0,4.4976199999999995,0.0,-22.961139678955078,-44.0413818359375
2020-04-04,MG,Manhuaçu,city,1,0.0,False,90229.0,3139409.0,1.10829,0.0,-20.266389846801758,-42.03594970703125
2020-04-04,PA,Marabá,city,2,0.0,False,279349.0,1504208.0,0.71595,0.0,-5.370910167694092,-49.12512969970703
2020-04-04,CE,Maracanaú,city,2,0.0,False,227886.0,2307650.0,0.8776299999999999,0.0,-3.8757801055908203,-38.626869201660156
2020-04-04,CE,Maranguape,city,2,0.0,False,128978.0,2307700.0,1.55065,0.0,-3.889739990234375,-38.6817512512207
2020-04-04,RS,Marau,city,3,0.0,False,44161.0,4311809.0,6.79332,0.0,-28.44532012939453,-52.20914840698242
2020-04-04,PR,Marechal Cândido Rondon,city,2,0.0,False,52944.0,4114609.0,3.7775800000000004,0.0,-24.55286979675293,-54.05664825439453
2020-04-04,AL,Marechal Deodoro,city,1,0.0,False,51901.0,2704708.0,1.92675,0.0,-9.770000457763672,-35.84086990356445
2020-04-04,MG,Mariana,city,3,1.0,False,60724.0,3140001.0,4.94039,0.3333,-20.371200561523438,-43.417049407958984
2020-04-04,RJ,Maricá,city,7,1.0,False,161207.0,3302700.0,4.34224,0.1429,-22.91786003112793,-42.81861877441406
2020-04-04,PR,Maringá,city,19,2.0,False,423666.0,4115200.0,4.48466,0.1053,-23.425729751586914,-51.9369010925293
2020-04-04,PA,Marituba,city,2,0.0,False,131521.0,1504422.0,1.52067,0.0,-1.3658100366592407,-48.331478118896484
2020-04-04,PR,Mariópolis,city,1,0.0,False,6610.0,4115309.0,15.128589999999999,0.0,-26.350229263305664,-52.55257034301758
2020-04-04,SP,Marília,city,1,0.0,False,238882.0,3529005.0,0.41862,0.0,-22.22015953063965,-49.947540283203125
2020-04-04,PR,Matinhos,city,2,0.0,False,34720.0,4115705.0,5.76037,0.0,-25.818599700927734,-48.541439056396484
2020-04-04,SP,Matão,city,2,0.0,False,83170.0,3529302.0,2.4047099999999997,0.0,-21.603389739990234,-48.365501403808594
2020-04-04,CE,Mauriti,city,1,0.0,False,47962.0,2308104.0,2.08498,0.0,-7.3874101638793945,-38.77008819580078
2020-04-04,SP,Mauá,city,15,0.0,False,472912.0,3529401.0,3.17184,0.0,-23.664329528808594,-46.4582405090332
2020-04-04,BA,Medeiros Neto,city,1,0.0,False,22688.0,2921104.0,4.40762,0.0,-17.371000289916992,-40.224449157714844
2020-04-04,PR,Medianeira,city,3,0.0,False,46198.0,4115804.0,6.49379,0.0,-25.2951602935791,-54.09260177612305
2020-04-04,RJ,Mesquita,city,1,1.0,False,176103.0,3302858.0,0.56785,1.0,-22.782440185546875,-43.42940902709961
2020-04-04,RJ,Miguel Pereira,city,1,1.0,False,25538.0,3302908.0,3.9157300000000004,1.0,-22.4572696685791,-43.47129821777344
2020-04-04,SP,Mogi Guaçu,city,1,0.0,False,151888.0,3530706.0,0.65838,0.0,-22.37310028076172,-46.94179153442383
2020-04-04,SP,Mogi das Cruzes,city,17,1.0,False,445842.0,3530607.0,3.81301,0.0588,-23.53129005432129,-46.20132064819336
2020-04-04,RN,Monte Alegre,city,1,0.0,False,22451.0,2407807.0,4.45414,0.0,-6.072450160980225,-35.33660888671875
2020-04-04,SC,Morro da Fumaça,city,1,0.0,False,17796.0,4211207.0,5.6192400000000005,0.0,-28.651790618896484,-49.206260681152344
2020-04-04,RN,Mossoró,city,43,3.0,False,297378.0,2408003.0,14.459710000000001,0.0698,-5.187839984893799,-37.34421920776367
2020-04-04,MG,Muriaé,city,3,0.0,False,108763.0,3143906.0,2.75829,0.0,-21.12877082824707,-42.370269775390625
2020-04-04,MG,Nanuque,city,2,0.0,False,40750.0,3144300.0,4.90798,0.0,-17.830110549926758,-40.365211486816406
2020-04-04,RN,Natal,city,77,1.0,False,884122.0,2408102.0,8.70921,0.013000000000000001,-5.795440196990967,-35.211509704589844
2020-04-04,SC,Navegantes,city,4,0.0,False,81475.0,4211306.0,4.90948,0.0,-26.89961051940918,-48.655269622802734
2020-04-04,RJ,Nilópolis,city,1,0.0,False,162485.0,3303203.0,0.61544,0.0,-22.80986976623535,-43.41376876831055
2020-04-04,RJ,Niterói,city,79,2.0,False,513584.0,3303302.0,15.3821,0.0253,-22.888429641723633,-43.11463928222656
2020-04-04,SE,Nossa Senhora da Glória,city,1,0.0,False,36924.0,2804508.0,2.70827,0.0,-10.216569900512695,-37.4217414855957
2020-04-04,MS,Nova Andradina,city,3,0.0,False,54374.0,5006200.0,5.51734,0.0,-22.257049560546875,-53.359981536865234
2020-04-04,RJ,Nova Friburgo,city,1,0.0,False,190631.0,3303401.0,0.52457,0.0,-22.282350540161133,-42.534210205078125
2020-04-04,RJ,Nova Iguaçu,city,19,2.0,False,821128.0,3303500.0,2.3138900000000002,0.1053,-22.75996971130371,-43.451141357421875
2020-04-04,MG,Nova Lima,city,32,0.0,False,94889.0,3144805.0,33.72361,0.0,-19.988309860229492,-43.8467903137207
2020-04-04,MT,Nova Monte Verde,city,1,0.0,False,9178.0,5108956.0,10.89562,0.0,-9.979330062866211,-57.4658088684082
2020-04-04,MT,Nova Mutum,city,1,0.0,False,45378.0,5106224.0,2.20371,0.0,-13.821749687194824,-56.07767105102539
2020-04-04,SP,Nova Odessa,city,1,1.0,False,60174.0,3533403.0,1.66185,1.0,-22.779529571533203,-47.291568756103516
2020-04-04,RS,Nova Palma,city,1,0.0,False,6512.0,4313102.0,15.35627,0.0,-29.471410751342773,-53.472068786621094
2020-04-04,BA,Nova Soure,city,1,0.0,False,26947.0,2922904.0,3.7109900000000002,0.0,-11.239509582519531,-38.48003005981445
2020-04-04,GO,Nova Veneza,city,1,0.0,False,9853.0,5215009.0,10.149189999999999,0.0,-16.370189666748047,-49.31718063354492
2020-04-04,AM,Novo Airão,city,1,0.0,False,19454.0,1303205.0,5.1403300000000005,0.0,-2.630929946899414,-60.939300537109375
2020-04-04,RS,Novo Hamburgo,city,14,2.0,False,246748.0,4313409.0,5.6738,0.1429,-29.68320083618164,-51.12771987915039
2020-04-04,PA,Novo Progresso,city,1,0.0,False,25762.0,1505031.0,3.8816900000000003,0.0,-7.040770053863525,-55.41400146484375
2020-04-04,PA,Oeiras do Pará,city,1,0.0,False,32512.0,1505205.0,3.07579,0.0,-2.005350112915039,-49.85990905761719
2020-04-04,AP,Oiapoque,city,1,0.0,False,27270.0,1600501.0,3.6670300000000013,0.0,3.841209888458252,-51.83264923095703
2020-04-04,PE,Olinda,city,8,1.0,False,392482.0,2609600.0,2.03831,0.125,-8.017390251159668,-34.848140716552734
2020-04-04,SP,Orlândia,city,1,0.0,False,44028.0,3534302.0,2.27128,0.0,-20.719730377197266,-47.88496017456055
2020-04-04,SP,Osasco,city,62,2.0,False,698418.0,3534401.0,8.87721,0.0323,-23.531009674072266,-46.78623962402344
2020-04-04,RS,Osório,city,1,0.0,False,45994.0,4313508.0,2.1742,0.0,-29.89286994934082,-50.270591735839844
2020-04-04,SC,Palhoça,city,3,0.0,False,171797.0,4211900.0,1.74625,0.0,-27.641069412231445,-48.67885971069336
2020-04-04,PE,Palmares,city,1,0.0,False,63250.0,2610004.0,1.58103,0.0,-8.683320045471191,-35.58753967285156
2020-04-04,TO,Palmas,city,11,0.0,False,299127.0,1721000.0,3.67737,0.0,-10.169280052185059,-48.33203887939453
2020-04-04,PR,Palmeira,city,2,0.0,False,33877.0,4117701.0,5.90371,0.0,-25.425100326538086,-50.00223159790039
2020-04-04,SC,Papanduva,city,2,0.0,False,19320.0,4212205.0,10.35197,0.0,-26.402090072631836,-50.150779724121094
2020-04-04,PR,Paranaguá,city,4,0.0,False,154936.0,4118204.0,2.5817099999999997,0.0,-25.520639419555664,-48.50934982299805
2020-04-04,GO,Paranaiguara,city,1,0.0,False,10057.0,5216304.0,9.94332,0.0,-18.91119956970215,-50.65467834472656
2020-04-04,PR,Paranavaí,city,3,0.0,False,88374.0,4118402.0,3.39466,0.0,-23.084030151367188,-52.45161819458008
2020-04-04,PA,Parauapebas,city,2,0.0,False,208273.0,1505536.0,0.9602799999999999,0.0,-6.071770191192627,-49.90393829345703
2020-04-04,RS,Paraí,city,1,0.0,False,7657.0,4314001.0,13.05995,0.0,-28.599119186401367,-51.78752136230469
2020-04-04,RJ,Paraíba do Sul,city,2,0.0,False,44285.0,3303708.0,4.5162,0.0,-22.16415023803711,-43.291229248046875
2020-04-04,AM,Parintins,city,3,1.0,False,114273.0,1303403.0,2.62529,0.3333,-2.6271700859069824,-56.734039306640625
2020-04-04,SP,Pariquera-Açu,city,1,0.0,False,19648.0,3536208.0,5.0895800000000015,0.0,-24.715309143066406,-47.882381439208984
2020-04-04,RN,Parnamirim,city,17,0.0,False,261469.0,2403251.0,6.50173,0.0,-5.905429840087891,-35.261199951171875
2020-04-04,PI,Parnaíba,city,1,1.0,False,153078.0,2207702.0,0.6532600000000001,1.0,-2.90339994430542,-41.77568817138672
2020-04-04,RN,Passa e Fica,city,1,0.0,False,13277.0,2409100.0,7.53182,0.0,-6.435470104217529,-35.64358901977539
2020-04-04,RS,Passo Fundo,city,3,0.0,False,203275.0,4314100.0,1.47583,0.0,-28.261430740356445,-52.408809661865234
2020-04-04,PR,Pato Branco,city,3,0.0,False,82881.0,4118501.0,3.61965,0.0,-26.268930435180664,-52.70658874511719
2020-04-04,PB,Patos,city,1,1.0,False,107605.0,2510808.0,0.92932,1.0,-7.0197601318359375,-37.27524948120117
2020-04-04,MG,Patos de Minas,city,1,0.0,False,152488.0,3148004.0,0.65579,0.0,-18.590919494628906,-46.515689849853516
2020-04-04,MG,Patrocínio,city,3,0.0,False,90757.0,3148103.0,3.30553,0.0,-18.94318962097168,-46.99235916137695
2020-04-04,PE,Paulista,city,3,0.0,False,331774.0,2610707.0,0.90423,0.0,-7.943689823150635,-34.86594009399414
2020-04-04,SC,Paulo Lopes,city,1,0.0,False,7494.0,4212304.0,13.34401,0.0,-27.964580535888672,-48.68355178833008
2020-04-04,SP,Paulínia,city,2,0.0,False,109424.0,3536505.0,1.82775,0.0,-22.764219284057617,-47.15113830566406
2020-04-04,MA,Paço do Lumiar,city,2,0.0,False,122197.0,2107506.0,1.6367,0.0,-2.532550096511841,-44.1690788269043
2020-04-04,PR,Peabiru,city,1,0.0,False,13996.0,4118808.0,7.1449,0.0,-23.917190551757812,-52.34096908569336
2020-04-04,SC,Pedras Grandes,city,1,1.0,False,3976.0,4212403.0,25.15091,1.0,-28.4360294342041,-49.18470001220703
2020-04-04,RS,Pelotas,city,3,0.0,False,342405.0,4314407.0,0.87616,0.0,-31.763229370117188,-52.34141159057617
2020-04-04,SP,Penápolis,city,1,1.0,False,63407.0,3537305.0,1.57711,1.0,-21.4147891998291,-50.07265090942383
2020-04-04,SC,Pescaria Brava,city,1,0.0,False,10091.0,4212650.0,9.90982,0.0,-28.39719009399414,-48.88690185546875
2020-04-04,PE,Petrolina,city,2,0.0,False,349145.0,2611101.0,0.5728300000000001,0.0,-9.394729614257812,-40.50886154174805
2020-04-04,RJ,Petrópolis,city,13,1.0,False,306191.0,3303906.0,4.2457199999999995,0.0769,-22.50383949279785,-43.18204116821289
2020-04-04,PR,Pinhais,city,6,0.0,False,132157.0,4119152.0,4.54005,0.0,-25.433059692382812,-49.18497085571289
2020-04-04,PR,Pinhão,city,1,0.0,False,32391.0,4119301.0,3.08728,0.0,-25.700969696044922,-51.64104080200195
2020-04-04,SP,Piracicaba,city,6,0.0,False,404142.0,3538709.0,1.48463,0.0,-22.725360870361328,-47.64778137207031
2020-04-04,SP,Pirajuí,city,1,0.0,False,25492.0,3538907.0,3.9228,0.0,-22.000219345092773,-49.45383071899414
2020-04-04,PR,Piraquara,city,1,0.0,False,113036.0,4119509.0,0.8846700000000001,0.0,-25.443559646606445,-49.06201934814453
2020-04-04,RS,Piratini,city,1,0.0,False,20663.0,4314605.0,4.83957,0.0,-31.442480087280273,-53.1054801940918
2020-04-04,BA,Pojuca,city,1,0.0,False,39519.0,2925204.0,2.53043,0.0,-12.42708969116211,-38.33063888549805
2020-04-04,SC,Pomerode,city,1,0.0,False,33447.0,4213203.0,2.9898,0.0,-26.740859985351562,-49.1758918762207
2020-04-04,PR,Ponta Grossa,city,5,0.0,False,351736.0,4119905.0,1.4215200000000001,0.0,-25.094919204711914,-50.163108825683594
2020-04-04,MS,Ponta Porã,city,1,0.0,False,92526.0,5006606.0,1.0807799999999999,0.0,-22.53700065612793,-55.72623062133789
2020-04-04,RJ,Porciúncula,city,1,0.0,False,18847.0,3304102.0,5.30588,0.0,-20.961200714111328,-42.03675079345703
2020-04-04,AC,Porto Acre,city,1,0.0,False,18504.0,1200807.0,5.40424,0.0,-9.589469909667969,-67.53385925292969
2020-04-04,RS,Porto Alegre,city,241,4.0,False,1483771.0,4314902.0,16.2424,0.0166,-30.033920288085938,-51.227989196777344
2020-04-04,SC,Porto Belo,city,4,0.0,False,21388.0,4213500.0,18.70208,0.0,-27.157150268554688,-48.575660705566406
2020-04-04,SP,Porto Feliz,city,1,0.0,False,53098.0,3540606.0,1.8833099999999998,0.0,-23.214689254760742,-47.52384948730469
2020-04-04,AL,Porto Real do Colégio,city,1,0.0,False,20066.0,2707503.0,4.98355,0.0,-10.181139945983887,-36.82830810546875
2020-04-04,BA,Porto Seguro,city,10,0.0,False,148686.0,2925303.0,6.72558,0.0,-16.451139450073242,-39.06476974487305
2020-04-04,RO,Porto Velho,city,9,1.0,False,529544.0,1100205.0,1.6995799999999999,0.1111,-8.761670112609863,-63.9019889831543
2020-04-04,MG,Pouso Alegre,city,3,0.0,False,150737.0,3152501.0,1.99022,0.0,-22.234460830688477,-45.93368148803711
2020-04-04,SP,Poá,city,3,0.0,False,117452.0,3539806.0,2.55423,0.0,-23.526060104370117,-46.344058990478516
2020-04-04,MG,Poços de Caldas,city,2,0.0,False,167397.0,3151800.0,1.19476,0.0,-21.788469314575195,-46.562740325927734
2020-04-04,BA,Prado,city,4,0.0,False,28174.0,2925501.0,14.19749,0.0,-17.338600158691406,-39.22658920288086
2020-04-04,SP,Praia Grande,city,4,0.0,False,325073.0,3541000.0,1.2304899999999999,0.0,-23.999900817871094,-46.41408920288086
2020-04-04,SP,Promissão,city,1,0.0,False,40432.0,3541604.0,2.47329,0.0,-21.5344295501709,-49.85715866088867
2020-04-04,SE,Propriá,city,2,0.0,False,29626.0,2805703.0,6.7508300000000006,0.0,-10.213279724121094,-36.83747863769531
2020-04-04,PR,Quatiguá,city,2,1.0,False,7449.0,4120705.0,26.84924,0.5,-23.56266975402832,-49.918949127197266
2020-04-04,PR,Quatro Barras,city,1,0.0,False,23559.0,4120804.0,4.24466,0.0,-25.367700576782227,-49.07434844970703
2020-04-04,RJ,Queimados,city,2,0.0,False,150319.0,3304144.0,1.3305,0.0,-22.71303939819336,-43.557960510253906
2020-04-04,CE,Quixadá,city,2,0.0,False,87728.0,2311306.0,2.27977,0.0,-4.971590042114258,-39.01613998413086
2020-04-04,SC,Rancho Queimado,city,2,0.0,False,2878.0,4214300.0,69.4927,0.0,-27.673259735107422,-49.012290954589844
2020-04-04,PE,Recife,city,119,10.0,False,1645727.0,2611606.0,7.23085,0.084,-8.055310249328613,-34.87199020385742
2020-04-04,RJ,Resende,city,2,0.0,False,131341.0,3304201.0,1.52275,0.0,-22.470529556274414,-44.45037078857422
2020-04-04,SP,Ribeirão Pires,city,4,0.0,False,123393.0,3543303.0,3.24167,0.0,-23.71392059326172,-46.41379928588867
2020-04-04,SP,Ribeirão Preto,city,24,1.0,False,703293.0,3543402.0,3.4125199999999998,0.0417,-21.176990509033203,-47.80780029296875
2020-04-04,MG,Ribeirão das Neves,city,2,0.0,False,334858.0,3154606.0,0.59727,0.0,-19.765989303588867,-44.08700942993164
2020-04-04,RJ,Rio Bonito,city,2,1.0,False,60201.0,3304300.0,3.3222,0.5,-22.703250885009766,-42.59415817260742
2020-04-04,AC,Rio Branco,city,36,0.0,False,407319.0,1200401.0,8.838280000000003,0.0,-9.97387981414795,-67.80756378173828
2020-04-04,PR,Rio Branco do Sul,city,1,0.0,False,32397.0,4122206.0,3.08671,0.0,-25.18391990661621,-49.31523895263672
2020-04-04,SP,Rio Claro,city,2,0.0,False,206424.0,3543907.0,0.96888,0.0,-22.41175079345703,-47.562808990478516
2020-04-04,RS,Rio Grande,city,2,0.0,False,211005.0,4315602.0,0.94784,0.0,-32.033138275146484,-52.098140716552734
2020-04-04,PR,Rio Negro,city,1,0.0,False,34170.0,4122305.0,2.92654,0.0,-26.10382080078125,-49.79880905151367
2020-04-04,GO,Rio Verde,city,7,0.0,False,235647.0,5218805.0,2.97054,0.0,-17.793840408325195,-50.92919921875
2020-04-04,MS,Rio Verde de Mato Grosso,city,1,0.0,False,19746.0,5007406.0,5.0643199999999995,0.0,-18.919179916381836,-54.84415054321289
2020-04-04,RJ,Rio das Ostras,city,3,1.0,False,150674.0,3304524.0,1.99105,0.3333,-22.527530670166016,-41.942020416259766
2020-04-04,RJ,Rio de Janeiro,city,982,38.0,False,6718903.0,3304557.0,14.615479999999998,0.0387,-22.912160873413086,-43.175010681152344
2020-04-04,RS,Rolante,city,1,0.0,False,21349.0,4316006.0,4.68406,0.0,-29.642669677734375,-50.55548095703125
2020-04-04,PR,Rolândia,city,1,0.0,False,66580.0,4122404.0,1.50195,0.0,-23.3154296875,-51.36539077758789
2020-04-04,MT,Rondonópolis,city,6,0.0,False,232491.0,5107602.0,2.58075,0.0,-16.465869903564453,-54.62234115600586
2020-04-04,MG,Sabará,city,4,0.0,False,136344.0,3156700.0,2.93376,0.0,-19.890979766845703,-43.8109016418457
2020-04-04,SP,Salto de Pirapora,city,1,0.0,False,45422.0,3545308.0,2.20158,0.0,-23.649269104003906,-47.57324981689453
2020-04-04,BA,Salvador,city,215,5.0,False,2872347.0,2927408.0,7.48517,0.0233,-12.9864501953125,-38.52259063720703
2020-04-04,RS,Sant'Ana do Livramento,city,5,0.0,False,77027.0,4317103.0,6.4912300000000025,0.0,-30.889680862426758,-55.532249450683594
2020-04-04,SP,Santa Branca,city,2,0.0,False,14788.0,3546009.0,13.524479999999999,0.0,-23.397220611572266,-45.88542938232422
2020-04-04,BA,Santa Cruz Cabrália,city,2,0.0,False,27778.0,2927705.0,7.19994,0.0,-16.281320571899414,-39.02320861816406
2020-04-04,SP,Santa Isabel,city,1,0.0,False,57386.0,3546801.0,1.74259,0.0,-23.31829071044922,-46.22771072387695
2020-04-04,MG,Santa Luzia,city,1,0.0,False,219134.0,3157807.0,0.45633999999999997,0.0,-19.765949249267578,-43.84878921508789
2020-04-04,RS,Santa Maria,city,2,0.0,False,282123.0,4316907.0,0.70891,0.0,-29.690820693969727,-53.80104064941406
2020-04-04,CE,Santa Quitéria,city,1,1.0,False,43703.0,2312205.0,2.28817,1.0,-4.332180023193359,-40.15700912475586
2020-04-04,RS,Santa Rosa,city,2,0.0,False,73254.0,4317202.0,2.7302299999999997,0.0,-27.87047004699707,-54.491031646728516
2020-04-04,ES,Santa Teresa,city,1,0.0,False,23590.0,3204609.0,4.23908,0.0,-19.934579849243164,-40.595909118652344
2020-04-04,SP,Santana de Parnaíba,city,24,0.0,False,139447.0,3547304.0,17.21084,0.0,-23.44651985168457,-46.918731689453125
2020-04-04,MG,Santana do Paraíso,city,1,0.0,False,34663.0,3158953.0,2.88492,0.0,-19.36578941345215,-42.54867935180664
2020-04-04,PA,Santarém,city,5,1.0,False,304589.0,1506807.0,1.64156,0.2,-2.439310073852539,-54.698829650878906
2020-04-04,RS,Santiago,city,1,0.0,False,49425.0,4317400.0,2.02327,0.0,-29.16992950439453,-54.86101150512695
2020-04-04,SP,Santo André,city,76,3.0,False,718773.0,3547809.0,10.57357,0.0395,-23.656370162963867,-46.53173828125
2020-04-04,RN,Santo Antônio,city,1,0.0,False,24136.0,2411502.0,4.14319,0.0,-6.314239978790283,-35.47338104248047
2020-04-04,RS,Santo Antônio da Patrulha,city,1,0.0,False,42894.0,4317608.0,2.33133,0.0,-29.829570770263672,-50.521018981933594
2020-04-04,AM,Santo Antônio do Içá,city,4,0.0,False,21602.0,1303700.0,18.5168,0.0,-3.1069600582122803,-67.94695281982422
2020-04-04,MG,Santo Antônio do Monte,city,2,0.0,False,28243.0,3160405.0,7.0814,0.0,-20.080209732055664,-45.29851150512695
2020-04-04,SP,Santos,city,66,2.0,False,433311.0,3548500.0,15.23155,0.0303,-23.96143913269043,-46.32807159423828
2020-04-04,RS,Sapiranga,city,2,0.0,False,81734.0,4319901.0,2.44696,0.0,-29.6381893157959,-51.006080627441406
2020-04-04,RS,Sapucaia do Sul,city,1,0.0,False,141075.0,4320008.0,0.7088399999999999,0.0,-29.842050552368164,-51.146148681640625
2020-04-04,PR,Sarandi,city,2,0.0,False,96688.0,4126256.0,2.06851,0.0,-23.44491958618164,-51.87350845336914
2020-04-04,GO,Senador Canedo,city,1,0.0,False,115371.0,5220454.0,0.86677,0.0,-16.700780868530273,-49.122161865234375
2020-04-04,RS,Serafina Corrêa,city,3,0.0,False,17502.0,4320404.0,17.1409,0.0,-28.710729598999023,-51.931861877441406
2020-04-04,RJ,Seropédica,city,1,0.0,False,82312.0,3305554.0,1.21489,0.0,-22.74371910095215,-43.70085906982422
2020-04-04,ES,Serra,city,28,1.0,False,517510.0,3205002.0,5.41052,0.0357,-20.185029983520508,-40.24066162109375
2020-04-04,PB,Serra Branca,city,1,0.0,False,13699.0,2515500.0,7.2998,0.0,-7.480999946594238,-36.666259765625
2020-04-04,MG,Serra do Salitre,city,1,0.0,False,11582.0,3166808.0,8.634089999999999,0.0,-19.1046199798584,-46.67744827270508
2020-04-04,MG,Sete Lagoas,city,2,0.0,False,239639.0,3167202.0,0.8345899999999999,0.0,-19.467439651489258,-44.248748779296875
2020-04-04,SC,Siderópolis,city,3,0.0,False,14007.0,4217600.0,21.41786,0.0,-28.59906005859375,-49.42496109008789
2020-04-04,MS,Sidrolândia,city,1,0.0,False,57665.0,5007901.0,1.73415,0.0,-20.932369232177734,-54.96583938598633
2020-04-04,GO,Silvânia,city,1,0.0,False,20695.0,5220603.0,4.83209,0.0,-16.660959243774414,-48.6090202331543
2020-04-04,BA,Simões Filho,city,1,0.0,False,134377.0,2930709.0,0.74417,0.0,-12.785249710083008,-38.40528869628906
2020-04-04,MT,Sinop,city,3,0.0,False,142996.0,5107909.0,2.09796,0.0,-11.854470252990723,-55.5095100402832
2020-04-04,CE,Sobral,city,5,0.0,False,208935.0,2312908.0,2.39309,0.0,-3.680150032043457,-40.34907150268555
2020-04-04,SC,Sombrio,city,2,0.0,False,30374.0,4217709.0,6.58458,0.0,-29.110260009765625,-49.629920959472656
2020-04-04,ES,Sooretama,city,2,0.0,False,30070.0,3205010.0,6.65115,0.0,-19.19133949279785,-40.09577941894531
2020-04-04,SP,Sorocaba,city,8,2.0,False,679378.0,3552205.0,1.17755,0.25,-23.505800247192383,-47.455970764160156
2020-04-04,PB,Sousa,city,1,0.0,False,69444.0,2516201.0,1.44001,0.0,-6.758590221405029,-38.230438232421875
2020-04-04,SP,Suzano,city,8,0.0,False,297637.0,3552502.0,2.68784,0.0,-23.541160583496094,-46.310508728027344
2020-04-04,SP,São Bernardo do Campo,city,77,4.0,False,838936.0,3548708.0,9.178289999999999,0.0519,-23.70309066772461,-46.55242919921875
2020-04-04,SP,São Caetano do Sul,city,38,1.0,False,161127.0,3548807.0,23.583879999999997,0.0263,-23.60630989074707,-46.572078704833984
2020-04-04,BA,São Domingos,city,1,0.0,False,9058.0,2928950.0,11.03996,0.0,-11.463859558105469,-39.5275993347168
2020-04-04,RS,São Domingos do Sul,city,1,0.0,False,3074.0,4318051.0,32.5309,0.0,-28.533430099487305,-51.88774108886719
2020-04-04,SC,São Francisco do Sul,city,2,0.0,False,52721.0,4216206.0,3.79355,0.0,-26.24220085144043,-48.63792037963867
2020-04-04,RS,São Gabriel,city,1,0.0,False,62105.0,4318309.0,1.61018,0.0,-30.33942985534668,-54.32059097290039
2020-04-04,PA,São Geraldo do Araguaia,city,1,0.0,False,24847.0,1507458.0,4.02463,0.0,-6.393229961395264,-48.56135940551758
2020-04-04,RJ,São Gonçalo,city,11,1.0,False,1084839.0,3304904.0,1.0139799999999999,0.0909,-22.823280334472656,-43.04536819458008
2020-04-04,RN,São Gonçalo do Amarante,city,9,0.0,False,102400.0,2412005.0,8.789060000000001,0.0,-5.793190002441406,-35.32883071899414
2020-04-04,SC,São José,city,15,1.0,False,246586.0,4216602.0,6.0830699999999975,0.0667,-27.616640090942383,-48.62778854370117
2020-04-04,RN,São José de Mipibu,city,1,0.0,False,43899.0,2412203.0,2.2779599999999998,0.0,-6.0736799240112305,-35.23786163330078
2020-04-04,MA,São José de Ribamar,city,3,0.0,False,177687.0,2111201.0,1.6883599999999999,0.0,-2.5500199794769287,-44.06755065917969
2020-04-04,PI,São José do Divino,city,1,1.0,False,5346.0,2210052.0,18.70557,1.0,-3.8110599517822266,-41.83094024658203
2020-04-04,SP,São José do Rio Pardo,city,1,0.0,False,54946.0,3549706.0,1.81997,0.0,-21.595739364624023,-46.88774108886719
2020-04-04,SP,São José do Rio Preto,city,9,0.0,False,460671.0,3549805.0,1.95367,0.0,-20.809879302978516,-49.38576126098633
2020-04-04,SP,São José dos Campos,city,24,0.0,False,721944.0,3549904.0,3.32436,0.0,-23.179250717163086,-45.88719940185547
2020-04-04,PR,São José dos Pinhais,city,7,0.0,False,323340.0,4125506.0,2.1649,0.0,-25.536409378051758,-49.204219818115234
2020-04-04,RJ,São João de Meriti,city,4,1.0,False,472406.0,3305109.0,0.84673,0.25,-22.801660537719727,-43.3651008605957
2020-04-04,MG,São João del Rei,city,3,0.0,False,90082.0,3162500.0,3.3303,0.0,-21.133159637451172,-44.25843048095703
2020-04-04,RS,São Leopoldo,city,8,0.0,False,236835.0,4318705.0,3.37788,0.0,-29.77182960510254,-51.14950180053711
2020-04-04,PE,São Lourenço da Mata,city,3,0.0,False,113230.0,2613701.0,2.64947,0.0,-7.998499870300293,-35.01996994018555
2020-04-04,SC,São Lourenço do Oeste,city,1,0.0,False,24076.0,4216909.0,4.15351,0.0,-26.356449127197266,-52.85234069824219
2020-04-04,SC,São Ludgero,city,3,1.0,False,13410.0,4217006.0,22.37136,0.3333,-28.32900047302246,-49.181278228759766
2020-04-04,MA,São Luís,city,86,2.0,False,1101884.0,2111300.0,7.8048100000000025,0.0233,-2.5265700817108154,-44.24031066894531
2020-04-04,GO,São Luís de Montes Belos,city,1,0.0,False,33817.0,5220108.0,2.95709,0.0,-16.524099349975586,-50.3726692199707
2020-04-04,PR,São Manoel do Paraná,city,1,0.0,False,2160.0,4125555.0,46.2963,0.0,-23.394329071044922,-52.645931243896484
2020-04-04,SP,São Manuel,city,1,0.0,False,40954.0,3550100.0,2.44176,0.0,-22.732990264892578,-48.572959899902344
2020-04-04,ES,São Mateus,city,4,1.0,False,130611.0,3204906.0,3.0625299999999998,0.25,-18.722370147705078,-39.859779357910156
2020-04-04,SP,São Paulo,city,3496,212.0,False,12252023.0,3550308.0,28.534059999999997,0.0606,-23.562870025634766,-46.65467834472656
2020-04-04,SP,São Pedro,city,1,0.0,False,35653.0,3550407.0,2.80481,0.0,-22.54888916015625,-47.91455078125
2020-04-04,RJ,São Pedro da Aldeia,city,1,0.0,False,104476.0,3305208.0,0.95716,0.0,-22.836130142211914,-42.10369873046875
2020-04-04,SC,São Pedro de Alcântara,city,1,0.0,False,5823.0,4217253.0,17.17328,0.0,-27.567729949951172,-48.80485916137695
2020-04-04,ES,São Roque do Canaã,city,1,0.0,False,12415.0,3204955.0,8.05477,0.0,-19.745159149169922,-40.660701751708984
2020-04-04,SP,São Sebastião,city,3,1.0,False,88980.0,3550704.0,3.37154,0.3333,-23.715700149536133,-45.4279899597168
2020-04-04,RS,São Sebastião do Caí,city,2,0.0,False,25685.0,4319505.0,7.78665,0.0,-29.587770462036133,-51.37351989746094
2020-04-04,SP,São Vicente,city,5,0.0,False,365798.0,3551009.0,1.36687,0.0,-23.95063018798828,-46.39799880981445
2020-04-04,SP,Taboão da Serra,city,39,2.0,False,289664.0,3552809.0,13.46388,0.0513,-23.624820709228516,-46.787410736083984
2020-04-04,MT,Tangará da Serra,city,4,0.0,False,103750.0,5107958.0,3.8554199999999996,0.0,-14.631150245666504,-57.50690841674805
2020-04-04,RS,Taquara,city,2,0.0,False,57466.0,4321204.0,3.48032,0.0,-29.64617919921875,-50.78020095825195
2020-04-04,RS,Taquari,city,1,0.0,False,26862.0,4321303.0,3.7227300000000003,0.0,-29.79970932006836,-51.864620208740234
2020-04-04,SP,Tatuí,city,1,0.0,False,121766.0,3554003.0,0.82125,0.0,-23.35713005065918,-47.858211517333984
2020-04-04,SP,Taubaté,city,1,0.0,False,314924.0,3554102.0,0.31754,0.0,-23.0322208404541,-45.56040954589844
2020-04-04,BA,Teixeira de Freitas,city,3,0.0,False,160487.0,2931350.0,1.8693099999999998,0.0,-17.541019439697266,-39.716060638427734
2020-04-04,PR,Telêmaco Borba,city,4,0.0,False,78974.0,4127106.0,5.06496,0.0,-24.3257999420166,-50.630348205566406
2020-04-04,PI,Teresina,city,21,2.0,False,864845.0,2211001.0,2.42818,0.0952,-5.090670108795166,-42.81163024902344
2020-04-04,RJ,Teresópolis,city,4,0.0,False,182594.0,3305802.0,2.19065,0.0,-22.412389755249023,-42.966678619384766
2020-04-04,PR,Terra Boa,city,1,0.0,False,17094.0,4127205.0,5.85001,0.0,-23.768840789794922,-52.44683074951172
2020-04-04,PR,Terra Rica,city,1,0.0,False,16789.0,4127304.0,5.9562800000000005,0.0,-22.725929260253906,-52.61811828613281
2020-04-04,CE,Tianguá,city,2,0.0,False,75946.0,2313401.0,2.63345,0.0,-3.728610038757324,-40.99203872680664
2020-04-04,RN,Tibau,city,1,0.0,False,4106.0,2411056.0,24.3546,0.0,-6.188469886779785,-35.09056854248047
2020-04-04,SC,Tijucas,city,1,0.0,False,38407.0,4218004.0,2.6036900000000003,0.0,-27.24138069152832,-48.635589599609375
2020-04-04,SC,Timbé do Sul,city,1,0.0,False,5348.0,4218103.0,18.69858,0.0,-28.831039428710938,-49.850860595703125
2020-04-04,MA,Timon,city,2,0.0,False,169107.0,2112209.0,1.18268,0.0,-5.1008100509643555,-42.823970794677734
2020-04-04,MG,Timóteo,city,1,0.0,False,89842.0,3168705.0,1.11307,0.0,-19.544410705566406,-42.63945007324219
2020-04-04,MG,Toledo,city,1,0.0,False,6258.0,3169109.0,15.97955,0.0,-22.743059158325195,-46.37446975708008
2020-04-04,AM,Tonantins,city,3,0.0,False,18755.0,1304237.0,15.995729999999998,0.0,-2.8624699115753174,-67.7770767211914
2020-04-04,RS,Torres,city,8,0.0,False,38732.0,4321501.0,20.65476,0.0,-29.341230392456055,-49.725059509277344
2020-04-04,RS,Tramandaí,city,1,0.0,False,51715.0,4321600.0,1.93367,0.0,-30.00848960876465,-50.151641845703125
2020-04-04,GO,Trindade,city,1,0.0,False,127599.0,5221403.0,0.78371,0.0,-16.654680252075195,-49.49824142456055
2020-04-04,MS,Três Lagoas,city,1,0.0,False,121388.0,5008305.0,0.8238,0.0,-20.79483985900879,-51.68077087402344
2020-04-04,RJ,Três Rios,city,1,0.0,False,81804.0,3306008.0,1.22243,0.0,-22.1181697845459,-43.211830139160156
2020-04-04,SC,Tubarão,city,18,0.0,False,105686.0,4218707.0,17.031579999999998,0.0,-28.48693084716797,-49.01224899291992
2020-04-04,PA,Tucuruí,city,1,0.0,False,113659.0,1508100.0,0.87982,0.0,-3.7697699069976807,-49.673648834228516
2020-04-04,MG,Uberaba,city,4,0.0,False,333783.0,3170107.0,1.19838,0.0,-19.722639083862305,-47.91598892211914
2020-04-04,MG,Uberlândia,city,26,2.0,False,691305.0,3170206.0,3.761,0.0769,-18.91901969909668,-48.2783203125
2020-04-04,PR,Umuarama,city,2,0.0,False,111557.0,4128104.0,1.7928099999999998,0.0,-23.763940811157227,-53.31819152832031
2020-04-04,MG,Unaí,city,1,0.0,False,84378.0,3170404.0,1.1851399999999999,0.0,-16.361610412597656,-46.89942932128906
2020-04-04,PR,União da Vitória,city,2,0.0,False,57517.0,4128203.0,3.4772300000000005,0.0,-26.230600357055664,-51.08665084838867
2020-04-04,RS,Uruguaiana,city,1,0.0,False,126970.0,4322400.0,0.78759,0.0,-29.771509170532227,-57.079750061035156
2020-04-04,SC,Urussanga,city,2,0.0,False,21268.0,4219002.0,9.4038,0.0,-28.522729873657227,-49.3183708190918
2020-04-04,BA,Uruçuca,city,1,0.0,False,20519.0,2932705.0,4.8735300000000015,0.0,-14.591509819030762,-39.29212951660156
2020-04-04,BA,Utinga,city,1,1.0,False,19178.0,2932804.0,5.21431,1.0,-12.069499969482422,-41.09394836425781
2020-04-04,RJ,Valença,city,2,0.0,False,76523.0,3306107.0,2.6135900000000003,0.0,-22.246240615844727,-43.70354080200195
2020-04-04,SP,Valinhos,city,3,0.0,False,129193.0,3556206.0,2.32211,0.0,-22.968250274658203,-47.001670837402344
2020-04-04,GO,Valparaíso de Goiás,city,5,0.0,False,168468.0,5221858.0,2.96792,0.0,-16.07176971435547,-47.985721588134766
2020-04-04,SP,Vargem Grande Paulista,city,4,1.0,False,52597.0,3556453.0,7.605,0.25,-23.61376953125,-46.99747848510742
2020-04-04,MG,Varginha,city,3,0.0,False,135558.0,3170701.0,2.21307,0.0,-21.557130813598633,-45.43735885620117
2020-04-04,PR,Verê,city,1,0.0,False,7257.0,4128609.0,13.7798,0.0,-25.91670036315918,-52.983299255371094
2020-04-04,RS,Viamão,city,4,0.0,False,255224.0,4323002.0,1.56725,0.0,-30.088409423828125,-51.0234489440918
2020-04-04,ES,Viana,city,1,0.0,False,78239.0,3205101.0,1.27813,0.0,-20.357370376586914,-40.425209045410156
2020-04-04,RS,Vila Maria,city,1,0.0,False,4358.0,4323408.0,22.94631,0.0,-30.34770965576172,-54.31388854980469
2020-04-04,ES,Vila Velha,city,50,2.0,False,493838.0,3205200.0,10.12478,0.04,-20.330310821533203,-40.29214096069336
2020-04-04,SP,Vinhedo,city,1,0.0,False,78728.0,3556701.0,1.2702,0.0,-23.029930114746094,-46.97486114501953
2020-04-04,ES,Vitória,city,43,2.0,False,362097.0,3205309.0,11.87527,0.0465,-20.320619583129883,-40.33409881591797
2020-04-04,BA,Vitória da Conquista,city,2,0.0,False,338480.0,2933307.0,0.5908800000000001,0.0,-14.853349685668945,-40.858280181884766
2020-04-04,RJ,Volta Redonda,city,45,2.0,False,273012.0,3306305.0,16.482789999999998,0.0444,-22.50507926940918,-44.093990325927734
2020-04-04,SP,Votorantim,city,2,0.0,False,122480.0,3557006.0,1.6329200000000001,0.0,-23.540380477905273,-47.44395065307617
2020-04-04,SP,Votuporanga,city,1,0.0,False,94547.0,3557105.0,1.05768,0.0,-20.42108917236328,-49.975189208984375
2020-04-04,MT,Várzea Grande,city,4,0.0,False,284971.0,5108402.0,1.40365,0.0,-15.651749610900879,-56.13930130004883
2020-04-04,GO,Águas Lindas de Goiás,city,1,0.0,False,212440.0,5200258.0,0.47071999999999997,0.0,-15.732810020446777,-48.26776885986328
2020-04-04,SP,Águas de Lindóia,city,1,0.0,False,18705.0,3500501.0,5.34616,0.0,-22.47467041015625,-46.63003158569336
